{
"type": "FeatureCollection",
"crs": { "type": "name", "properties": { "name": "urn:ogc:def:crs:OGC:1.3:CRS84" } },
                                                                                
"features": [
{ "type": "Feature", "properties": { "OBJECTID": 1, "GIS_ID": "mstn_007", "NAME": "Columbia Heights", "WEB_URL": "http:\/\/wmata.com\/rail\/station_detail.cfm?station_id=75", "LINE": "green, yellow", "ADDRESS": "3030 14TH STREET NW" }, "geometry": { "type": "Point", "coordinates": [ -77.032554413088207, 38.927845759196821 ] } },
{ "type": "Feature", "properties": { "OBJECTID": 2, "GIS_ID": "mstn_020", "NAME": "Georgia Ave Petworth", "WEB_URL": "http:\/\/wmata.com\/rail\/station_detail.cfm?station_id=76", "LINE": "green, yellow", "ADDRESS": "3700 GEORGIA AVENUE NW" }, "geometry": { "type": "Point", "coordinates": [ -77.023463197213687, 38.937442424091323 ] } },
{ "type": "Feature", "properties": { "OBJECTID": 3, "GIS_ID": "mstn_034", "NAME": "Takoma", "WEB_URL": "http:\/\/wmata.com\/rail\/station_detail.cfm?station_id=29", "LINE": "red", "ADDRESS": "327 CEDAR STREET NW" }, "geometry": { "type": "Point", "coordinates": [ -77.018178992564543, 38.976086332993169 ] } },
{ "type": "Feature", "properties": { "OBJECTID": 4, "GIS_ID": "mstn_004", "NAME": "Brookland-CUA", "WEB_URL": "http:\/\/wmata.com\/rail\/station_detail.cfm?station_id=27", "LINE": "red", "ADDRESS": "801 MICHIGAN AVENUE NE" }, "geometry": { "type": "Point", "coordinates": [ -76.994536568964165, 38.93321878552851 ] } },
{ "type": "Feature", "properties": { "OBJECTID": 5, "GIS_ID": "mstn_017", "NAME": "Fort Totten", "WEB_URL": "http:\/\/wmata.com\/rail\/station_detail.cfm?station_id=28", "LINE": "red, green, yellow", "ADDRESS": "550 GALLOWAY STREET NE" }, "geometry": { "type": "Point", "coordinates": [ -77.002205364200989, 38.951854565233248 ] } },
{ "type": "Feature", "properties": { "OBJECTID": 6, "GIS_ID": "mstn_003", "NAME": "Benning Road", "WEB_URL": "http:\/\/wmata.com\/rail\/station_detail.cfm?station_id=90", "LINE": "blue, orange, silver", "ADDRESS": "4500 BENNING ROAD NE" }, "geometry": { "type": "Point", "coordinates": [ -76.938367131914333, 38.890983463751674 ] } },
{ "type": "Feature", "properties": { "OBJECTID": 7, "GIS_ID": "mstn_009", "NAME": "Deanwood", "WEB_URL": "http:\/\/wmata.com\/rail\/station_detail.cfm?station_id=65", "LINE": "orange", "ADDRESS": "4720 MINNESOTA AVENUE NE" }, "geometry": { "type": "Point", "coordinates": [ -76.935259046919128, 38.90818628785243 ] } },
{ "type": "Feature", "properties": { "OBJECTID": 8, "GIS_ID": "mstn_028", "NAME": "NoMa - Gallaudet U", "WEB_URL": "http:\/\/wmata.com\/rail\/station_detail.cfm?station_id=108", "LINE": "red", "ADDRESS": "200 FLORIDA AVENUE NE" }, "geometry": { "type": "Point", "coordinates": [ -77.00302273218287, 38.907024000728896 ] } },
{ "type": "Feature", "properties": { "OBJECTID": 9, "GIS_ID": "mstn_035", "NAME": "Tenleytown-AU", "WEB_URL": "http:\/\/wmata.com\/rail\/station_detail.cfm?station_id=10", "LINE": "red", "ADDRESS": "4501 WISCONSIN AVENUE NW" }, "geometry": { "type": "Point", "coordinates": [ -77.079589636844048, 38.948859229293198 ] } },
{ "type": "Feature", "properties": { "OBJECTID": 10, "GIS_ID": "mstn_018", "NAME": "Friendship Heights", "WEB_URL": "http:\/\/wmata.com\/rail\/station_detail.cfm?station_id=11", "LINE": "red", "ADDRESS": "5337 WISCONSIN AVENUE NW" }, "geometry": { "type": "Point", "coordinates": [ -77.084998118687949, 38.959491669762158 ] } },
{ "type": "Feature", "properties": { "OBJECTID": 11, "GIS_ID": "mstn_016", "NAME": "Foggy Bottom-GWU", "WEB_URL": "http:\/\/wmata.com\/rail\/station_detail.cfm?station_id=40", "LINE": "blue, orange, silver", "ADDRESS": "2301 I STREET NW" }, "geometry": { "type": "Point", "coordinates": [ -77.050280038297245, 38.900705794768506 ] } },
{ "type": "Feature", "properties": { "OBJECTID": 12, "GIS_ID": "mstn_013", "NAME": "Farragut West", "WEB_URL": "http:\/\/wmata.com\/rail\/station_detail.cfm?station_id=38", "LINE": "blue, orange, silver", "ADDRESS": "900 18TH STREET NW" }, "geometry": { "type": "Point", "coordinates": [ -77.040697711445219, 38.901320680202886 ] } },
{ "type": "Feature", "properties": { "OBJECTID": 13, "GIS_ID": "mstn_012", "NAME": "Farragut North", "WEB_URL": "http:\/\/wmata.com\/rail\/station_detail.cfm?station_id=4", "LINE": "red", "ADDRESS": "1001 CONNECTICUT AVENUE NW" }, "geometry": { "type": "Point", "coordinates": [ -77.039703123343102, 38.903209732709456 ] } },
{ "type": "Feature", "properties": { "OBJECTID": 14, "GIS_ID": "mstn_010", "NAME": "Dupont Circle", "WEB_URL": "http:\/\/wmata.com\/rail\/station_detail.cfm?station_id=6", "LINE": "red", "ADDRESS": "1525 20TH STREET NW" }, "geometry": { "type": "Point", "coordinates": [ -77.043416657370443, 38.909605845163654 ] } },
{ "type": "Feature", "properties": { "OBJECTID": 15, "GIS_ID": "mstn_040", "NAME": "Woodley Park-Zoo Adams Morgan", "WEB_URL": "http:\/\/wmata.com\/rail\/station_detail.cfm?station_id=7", "LINE": "red", "ADDRESS": "2700 24TH STREET NW" }, "geometry": { "type": "Point", "coordinates": [ -77.052420322193186, 38.925092927477458 ] } },
{ "type": "Feature", "properties": { "OBJECTID": 16, "GIS_ID": "mstn_022", "NAME": "LEnfant Plaza", "WEB_URL": "http:\/\/wmata.com\/rail\/station_detail.cfm?station_id=82", "LINE": "grn, yllw, orange, blue, slvr", "ADDRESS": "600 MARYLAND AVENUE SW" }, "geometry": { "type": "Point", "coordinates": [ -77.021910773530152, 38.884845511312982 ] } },
{ "type": "Feature", "properties": { "OBJECTID": 17, "GIS_ID": "mstn_032", "NAME": "Smithsonian", "WEB_URL": "http:\/\/wmata.com\/rail\/station_detail.cfm?station_id=54", "LINE": "blue, orange, silver", "ADDRESS": "1200 INDEPENDENCE AVENUE SW" }, "geometry": { "type": "Point", "coordinates": [ -77.028068525832211, 38.888026485864557 ] } },
{ "type": "Feature", "properties": { "OBJECTID": 18, "GIS_ID": "mstn_015", "NAME": "Federal Triangle", "WEB_URL": "http:\/\/wmata.com\/rail\/station_detail.cfm?station_id=53", "LINE": "blue, orange, silver", "ADDRESS": "302 12TH STREET NW" }, "geometry": { "type": "Point", "coordinates": [ -77.028134290287127, 38.893188656706471 ] } },
{ "type": "Feature", "properties": { "OBJECTID": 19, "GIS_ID": "mstn_002", "NAME": "Archives-Navy Meml", "WEB_URL": "http:\/\/wmata.com\/rail\/station_detail.cfm?station_id=81", "LINE": "green, yellow", "ADDRESS": "701 PENNSYLVANIA AVENUE NW" }, "geometry": { "type": "Point", "coordinates": [ -77.021916677974545, 38.893673008703402 ] } },
{ "type": "Feature", "properties": { "OBJECTID": 20, "GIS_ID": "mstn_039", "NAME": "Waterfront", "WEB_URL": "http:\/\/wmata.com\/rail\/station_detail.cfm?station_id=83", "LINE": "green", "ADDRESS": "399 M STREET SW" }, "geometry": { "type": "Point", "coordinates": [ -77.017507496356416, 38.876469648771426 ] } },
{ "type": "Feature", "properties": { "OBJECTID": 21, "GIS_ID": "mstn_027", "NAME": "Navy Yard - Ballpark", "WEB_URL": "http:\/\/wmata.com\/rail\/station_detail.cfm?station_id=84", "LINE": "green", "ADDRESS": "200 M STREET SE" }, "geometry": { "type": "Point", "coordinates": [ -77.005087935056594, 38.876488867248568 ] } },
{ "type": "Feature", "properties": { "OBJECTID": 22, "GIS_ID": "mstn_014", "NAME": "Federal Center SW", "WEB_URL": "http:\/\/wmata.com\/rail\/station_detail.cfm?station_id=58", "LINE": "orange, blue, silver", "ADDRESS": "401 3RD STREET SW" }, "geometry": { "type": "Point", "coordinates": [ -77.0158705045136, 38.885080138818239 ] } },
{ "type": "Feature", "properties": { "OBJECTID": 23, "GIS_ID": "mstn_021", "NAME": "Judiciary Sq", "WEB_URL": "http:\/\/wmata.com\/rail\/station_detail.cfm?station_id=23", "LINE": "red", "ADDRESS": "450 F STREET NW" }, "geometry": { "type": "Point", "coordinates": [ -77.016641245106555, 38.89609810353025 ] } },
{ "type": "Feature", "properties": { "OBJECTID": 24, "GIS_ID": "mstn_005", "NAME": "Capitol South", "WEB_URL": "http:\/\/wmata.com\/rail\/station_detail.cfm?station_id=59", "LINE": "blue, orange, silver", "ADDRESS": "355 1ST STREET SE" }, "geometry": { "type": "Point", "coordinates": [ -77.005141704154411, 38.885070284996203 ] } },
{ "type": "Feature", "properties": { "OBJECTID": 25, "GIS_ID": "mstn_023", "NAME": "McPherson Sq", "WEB_URL": "http:\/\/wmata.com\/rail\/station_detail.cfm?station_id=36", "LINE": "blue, orange, silver", "ADDRESS": "1400 I STREET NW" }, "geometry": { "type": "Point", "coordinates": [ -77.033636466217999, 38.90134058317787 ] } },
{ "type": "Feature", "properties": { "OBJECTID": 26, "GIS_ID": "mstn_024", "NAME": "Metro Center", "WEB_URL": "http:\/\/wmata.com\/rail\/station_detail.cfm?station_id=1", "LINE": "red, blue, orange, silver", "ADDRESS": "607 13TH STREET NW" }, "geometry": { "type": "Point", "coordinates": [ -77.028080289359139, 38.898322259102308 ] } },
{ "type": "Feature", "properties": { "OBJECTID": 27, "GIS_ID": "mstn_019", "NAME": "Gallery Pl-Chinatown", "WEB_URL": "http:\/\/wmata.com\/rail\/station_detail.cfm?station_id=21", "LINE": "red, green, yellow", "ADDRESS": "630 H STREET NW" }, "geometry": { "type": "Point", "coordinates": [ -77.021917680683444, 38.898324595916016 ] } },
{ "type": "Feature", "properties": { "OBJECTID": 28, "GIS_ID": "mstn_026", "NAME": "Mt Vernon Sq - 7th St Convention Center", "WEB_URL": "http:\/\/wmata.com\/rail\/station_detail.cfm?station_id=70", "LINE": "green, yellow", "ADDRESS": "700 M STREET NW" }, "geometry": { "type": "Point", "coordinates": [ -77.021916671141739, 38.906444602708461 ] } },
{ "type": "Feature", "properties": { "OBJECTID": 29, "GIS_ID": "mstn_036", "NAME": "U St\/African-Amer Civil War Memorial\/Cardozo", "WEB_URL": "http:\/\/wmata.com\/rail\/station_detail.cfm?station_id=73", "LINE": "green, yellow", "ADDRESS": "1300 U STREET NW" }, "geometry": { "type": "Point", "coordinates": [ -77.02749818608801, 38.917010188922752 ] } },
{ "type": "Feature", "properties": { "OBJECTID": 30, "GIS_ID": "mstn_031", "NAME": "Shaw-Howard Univ", "WEB_URL": "http:\/\/wmata.com\/rail\/station_detail.cfm?station_id=72", "LINE": "green, yellow", "ADDRESS": "1701 8TH STREET NW" }, "geometry": { "type": "Point", "coordinates": [ -77.021913991970209, 38.913484660340806 ] } },
{ "type": "Feature", "properties": { "OBJECTID": 31, "GIS_ID": "mstn_037", "NAME": "Union Station", "WEB_URL": "http:\/\/wmata.com\/rail\/station_detail.cfm?station_id=25", "LINE": "red", "ADDRESS": "701 1ST STREET NE" }, "geometry": { "type": "Point", "coordinates": [ -77.00741657791022, 38.897773825784114 ] } },
{ "type": "Feature", "properties": { "OBJECTID": 32, "GIS_ID": "mstn_008", "NAME": "Congress Heights", "WEB_URL": "http:\/\/wmata.com\/rail\/station_detail.cfm?station_id=86", "LINE": "green", "ADDRESS": "1290 ALABAMA AVENUE SE" }, "geometry": { "type": "Point", "coordinates": [ -76.988514209257701, 38.845665479611391 ] } },
{ "type": "Feature", "properties": { "OBJECTID": 33, "GIS_ID": "mstn_001", "NAME": "Anacostia", "WEB_URL": "http:\/\/wmata.com\/rail\/station_detail.cfm?station_id=85", "LINE": "green", "ADDRESS": "1101 HOWARD ROAD SE" }, "geometry": { "type": "Point", "coordinates": [ -76.995373018593227, 38.862970896776801 ] } },
{ "type": "Feature", "properties": { "OBJECTID": 34, "GIS_ID": "mstn_011", "NAME": "Eastern Market", "WEB_URL": "http:\/\/wmata.com\/rail\/station_detail.cfm?station_id=60", "LINE": "blue, orange, silver", "ADDRESS": "701 PENNSYLVANIA AVENUE SE" }, "geometry": { "type": "Point", "coordinates": [ -76.996003408070962, 38.88463004516538 ] } },
{ "type": "Feature", "properties": { "OBJECTID": 35, "GIS_ID": "mstn_029", "NAME": "Potomac Ave", "WEB_URL": "http:\/\/wmata.com\/rail\/station_detail.cfm?station_id=61", "LINE": "blue, orange, silver", "ADDRESS": "700 14TH STREET SE" }, "geometry": { "type": "Point", "coordinates": [ -76.985497597533296, 38.881271057669238 ] } },
{ "type": "Feature", "properties": { "OBJECTID": 36, "GIS_ID": "mstn_033", "NAME": "Stadium Armory", "WEB_URL": "http:\/\/wmata.com\/rail\/station_detail.cfm?station_id=63", "LINE": "blue, orange, silver", "ADDRESS": "192 19TH STREET SE" }, "geometry": { "type": "Point", "coordinates": [ -76.977091177034239, 38.886716875290624 ] } },
{ "type": "Feature", "properties": { "OBJECTID": 37, "GIS_ID": "mstn_030", "NAME": "Rhode Island Ave", "WEB_URL": "http:\/\/wmata.com\/rail\/station_detail.cfm?station_id=26", "LINE": "red", "ADDRESS": "919 RHODE ISLAND AVENUE NE" }, "geometry": { "type": "Point", "coordinates": [ -76.995939200222153, 38.921067480859698 ] } },
{ "type": "Feature", "properties": { "OBJECTID": 38, "GIS_ID": "mstn_025", "NAME": "Minnesota Ave", "WEB_URL": "http:\/\/wmata.com\/rail\/station_detail.cfm?station_id=64", "LINE": "orange", "ADDRESS": "400 MINNESOTA AVENUE NE" }, "geometry": { "type": "Point", "coordinates": [ -76.946750000541954, 38.899199012183921 ] } },
{ "type": "Feature", "properties": { "OBJECTID": 39, "GIS_ID": "mstn_038", "NAME": "Van Ness-UDC", "WEB_URL": "http:\/\/wmata.com\/rail\/station_detail.cfm?station_id=9", "LINE": "red", "ADDRESS": "4200 CONNECTICUT AVENUE NW" }, "geometry": { "type": "Point", "coordinates": [ -77.062988486318261, 38.943273081966794 ] } },
{ "type": "Feature", "properties": { "OBJECTID": 40, "GIS_ID": "mstn_006", "NAME": "Cleveland Park", "WEB_URL": "http:\/\/wmata.com\/rail\/station_detail.cfm?station_id=8", "LINE": "red", "ADDRESS": "3599 CONNECTICUT AVENUE NW" }, "geometry": { "type": "Point", "coordinates": [ -77.058044822872091, 38.934770682922007 ] } }
]
}
